{
  "locations": [
    {
      "zip": "77055-6209",
      "url": null,
      "type": "store",
      "street": "9710 KATY FREEWAY",
      "storeNumber": 109,
      "state": "TX",
      "openTimeslots": 0,
      "openAppointmentSlots": 0,
      "name": "Bunker Hill H-E-B",
      "longitude": -95.53206,
      "latitude": 29.78485,
      "city": "HOUSTON"
    },
    {
      "zip": "77459-6931",
      "url": null,
      "type": "store",
      "street": "8900 HWY 6",
      "storeNumber": 110,
      "state": "TX",
      "openTimeslots": 0,
      "openAppointmentSlots": 0,
      "name": "Sienna Market H-E-B",
      "longitude": -95.53497,
      "latitude": 29.53928,
      "city": "MISSOURI CITY"
    },
    {
      "zip": "78550-7708",
      "url": null,
      "type": "store",
      "street": "1213 S. COMMERCE",
      "storeNumber": 136,
      "state": "TX",
      "openTimeslots": 0,
      "openAppointmentSlots": 0,
      "name": "Southland and 12th St H-E-B",
      "longitude": -97.68171,
      "latitude": 26.18251,
      "city": "HARLINGEN"
    },
    {
      "zip": "78413-3966",
      "url": null,
      "type": "store",
      "street": "5801 WEBER ROAD",
      "storeNumber": 139,
      "state": "TX",
      "openTimeslots": 0,
      "openAppointmentSlots": 0,
      "name": "Weber and Holly H-E-B",
      "longitude": -97.40529,
      "latitude": 27.71118,
      "city": "CORPUS CHRISTI"
    },
    {
      "zip": "78723-2924",
      "url": null,
      "type": "store",
      "street": "7112 ED BLUESTEIN_#125",
      "storeNumber": 161,
      "state": "TX",
      "openTimeslots": 0,
      "openAppointmentSlots": 0,
      "name": "Ed Blustein H-E-B",
      "longitude": -97.66465,
      "latitude": 30.31211,
      "city": "AUSTIN"
    }
  ]
}
